[
  { "name": "Big Bend National Park", "lat": 29.1275, "lng": -103.2425, "description": "Texas wilderness" },
  { "name": "Olympic National Park", "lat": 47.8021, "lng": -123.6044, "description": "Rainforest and mountains" },
  { "name": "Katmai National Park", "lat": 58.6129, "lng": -155.0631, "description": "Bears and volcanoes" },
  { "name": "Pikes Peak", "lat": 38.8409, "lng": -105.0423, "description": "Famous Colorado summit" },
  { "name": "Yellowstone National Park", "lat": 44.43, "lng": -110.59, "description": "YNP" },
  { "name": "Zion National Park", "lat": 37.2025, "lng": -112.9878, "description": "ZNP" },
  { "name": "Glacier National Park", "lat": 48.7549, "lng": -113.8004, "description": "GNP" },
  { "name": "Route 66 Oregon", "lat": 43.9, "lng": -120.3, "description": "The Oregon Location" },
  { "name": "Pacific Crest National Scenic Trail", "lat": 38.63, "lng": -119.91, "description": "PCT" },
  { "name": "New York City", "lat": 40.7128, "lng": -74.0060, "description": "Christmas in New York" },
  { "name": "Camino de Santiago", "lat": 41.29, "lng": -8.60, "description": "Portugal" },
  { "name": "Rome", "lat": 41.8919, "lng": 12.5113, "description": "Italy" },
  { "name": "Florence", "lat": 43.7692, "lng": 11.2559, "description": "Italy" },
  { "name": "Vienna", "lat": 48.2050, "lng": 16.3705, "description": "Italy" },
  { "name": "Capri", "lat": 40.55, "lng": 14.2333, "description": "Italy" },
  { "name": "Dolomites", "lat": 46.3833, "lng": 11.8500, "description": "Italy" },
  { "name": "Tuscany", "lat": 43.7711, "lng": 11.2486, "description": "Italy" },
  { "name": "Notre Dame", "lat": 48.8527, "lng": 2.3507, "description": "The Cathedral" },
  { "name": "Louvre", "lat": 48.8600, "lng": 2.3405, "description": "Paris" },
  { "name": "Lapland", "lat": 67.9222, "lng": 26.5046, "description": "Finland. Stay in one of those glass roof places and see the northern lights." },
  { "name": "Yogyakarta", "lat": 7.7956, "lng": 110.3695, "description": "Indonesia" },
  { "name": "Singapore", "lat": 1.3521, "lng": 103.8198, "description": "One of the Richest Countries on Earth" },
  { "name": "The Alps", "lat": 46.0, "lng": 10.0, "description": "Central Alps" }
]
